City_ID,City,Latitude,Lng,Max Temp,Humidity,Cloudiness,Wind Speed,Country,Date
0,busselton,-33.65,115.3333,64.4,57,17,13.73,AU,1680050034
1,hobart,-42.8794,147.3294,63.27,93,45,2.84,AU,1680050034
2,jamestown,42.097,-79.2353,39.02,65,0,3.44,US,1680050034
3,tasiilaq,65.6145,-37.6368,8.76,65,0,6.64,GL,1680050034
4,nome,64.5011,-165.4064,18.16,86,75,16.11,US,1680050035
5,bowen,-20.0167,148.2333,87.04,56,25,7.83,AU,1680050035
6,mercedes,-34.6515,-59.4307,72.86,65,0,9.78,AR,1680050035
7,lebu,-37.6167,-73.65,52.84,79,4,2.86,CL,1680050035
8,punta arenas,-53.15,-70.9167,37.11,74,11,13.78,CL,1680049806
9,lazarev,52.225,141.5131,31.26,80,90,14.14,RU,1680050035
10,hilo,19.7297,-155.09,79.95,80,100,13.8,US,1680050036
11,arraial do cabo,-22.9661,-42.0278,75.16,88,75,0.0,BR,1680050036
12,bengkulu,-3.8004,102.2655,76.32,88,100,3.11,ID,1680050036
13,provideniya,64.3833,-173.3,28.51,80,100,25.01,RU,1680050036
14,avera,33.194,-82.5271,66.25,66,100,9.89,US,1680050036
15,bolgar,54.95,49.0667,30.6,90,100,8.97,RU,1680049989
16,mataura,-46.1927,168.8643,51.48,48,25,6.93,NZ,1680050037
17,bethanien,-26.502,17.1583,62.11,40,0,2.01,NA,1680050037
18,ushuaia,-54.8,-68.3,35.26,80,40,16.11,AR,1680050037
19,karratha,-20.7377,116.8463,81.66,73,100,6.02,AU,1680050038
20,si sa ket,14.8333,104.3333,80.87,62,20,9.22,TH,1680050038
21,atuona,-9.8,-139.0333,80.96,75,7,11.16,PF,1680050038
22,cape town,-33.9258,18.4232,59.92,68,20,8.05,ZA,1680049961
23,formosa,-26.1775,-58.1781,84.96,57,0,5.75,AR,1680050038
24,chokurdakh,70.6333,147.9167,-4.76,93,82,14.5,RU,1680050038
25,petropavlovsk-kamchatskiy,53.0452,158.6483,32.59,47,20,13.42,RU,1680049860
26,grindavik,63.8424,-22.4338,35.55,60,0,19.57,IS,1680050039
27,yellowknife,62.456,-114.3525,14.52,85,100,5.75,CA,1680049845
28,te anau,-45.4167,167.7167,51.89,47,5,3.65,NZ,1680050039
29,bluff,-46.6,168.3333,51.8,59,81,13.49,NZ,1680050039
30,bethel,41.3712,-73.414,46.49,50,0,4.61,US,1680049733
31,troitsko-pechorsk,62.7084,56.1964,4.1,98,20,4.74,RU,1680050040
32,diapaga,12.0708,1.7889,82.36,52,26,1.41,BF,1680050040
33,yulara,-25.2406,130.9889,77.52,48,91,15.43,AU,1680050040
34,okhotsk,59.3833,143.3,20.19,89,100,6.4,RU,1680050040
35,doka,13.5167,35.7667,75.96,23,100,7.72,SD,1680050040
36,albany,42.6001,-73.9662,41.41,65,7,4.0,US,1680050041
37,hasaki,35.7333,140.8333,55.8,78,100,10.85,JP,1680050041
38,cap malheureux,-19.9842,57.6142,74.46,74,68,9.1,MU,1680049866
39,tiksi,71.6872,128.8694,-10.16,89,97,10.22,RU,1680050041
40,nanortalik,60.1432,-45.2371,26.06,84,40,3.0,GL,1680050041
41,asfi,32.2994,-9.2372,65.75,47,6,6.67,MA,1680050042
42,thompson,55.7435,-97.8558,10.56,56,100,11.5,CA,1680050042
43,avarua,-21.2078,-159.775,78.85,89,100,8.05,CK,1680050042
44,ostersund,63.1792,14.6357,7.25,85,68,3.44,SE,1680050042
45,urumqi,43.801,87.6005,43.75,53,0,4.47,CN,1680050043
46,hermanus,-34.4187,19.2345,58.8,76,100,3.96,ZA,1680050043
47,ribeira grande,38.5167,-28.7,59.77,76,13,21.0,PT,1680050043
48,alekseyevsk,57.8406,108.3492,21.65,91,100,5.08,RU,1680050044
49,torbay,47.6666,-52.7314,32.29,91,75,14.97,CA,1680050044
50,castro,-24.7911,-50.0119,63.79,93,97,3.38,BR,1680050044
51,kavieng,-2.5744,150.7967,80.44,75,100,4.76,PG,1680050044
52,okha,53.5739,142.9478,34.0,85,73,9.69,RU,1680050045
53,iqaluit,63.7506,-68.5145,13.73,85,100,5.75,CA,1680049783
54,nikolskoye,59.7035,30.7861,30.78,97,100,6.96,RU,1680050045
55,bauchi,10.5,10.0,71.87,14,21,5.77,NG,1680050045
56,cherskiy,68.75,161.3,16.11,73,50,22.88,RU,1680049988
57,saskylakh,71.9167,114.0833,-13.83,95,94,7.9,RU,1680050045
58,dikson,73.5069,80.5464,-11.49,96,100,11.88,RU,1680050046
59,gasa,31.5,34.4667,64.76,73,0,8.48,PS,1680050046
60,marsh harbour,26.5412,-77.0636,75.99,76,0,7.31,BS,1680050046
61,ponta delgada,37.7333,-25.6667,59.72,82,20,21.85,PT,1680050046
62,calvillo,21.85,-102.7167,86.94,11,6,7.7,MX,1680050046
63,adjumani,3.3779,31.7909,66.36,97,40,3.0,UG,1680050047
64,cidreira,-30.1811,-50.2056,71.76,83,4,12.53,BR,1680050047
65,rikitea,-23.1203,-134.9692,80.42,75,100,8.72,PF,1680050047
66,vila velha,-20.3297,-40.2925,80.94,81,75,0.0,BR,1680050047
67,vaini,-21.2,-175.2,82.56,89,20,11.5,TO,1680050048
68,new norfolk,-42.7826,147.0587,62.92,76,71,3.0,AU,1680050048
69,butaritari,3.0707,172.7902,81.12,81,41,13.4,KI,1680050048
70,ntoum,0.3833,9.7833,74.97,97,100,2.21,GA,1680050048
71,arlit,18.7369,7.3853,73.78,9,0,11.25,NE,1680050048
72,ponta do sol,32.6667,-17.1,70.12,27,68,1.54,PT,1680050049
73,shevchenkove,49.6959,37.1735,43.97,83,100,11.86,UA,1680050049
74,kapaa,22.0752,-159.319,80.92,79,75,14.97,US,1680050049
75,ambon,-3.6954,128.1814,84.34,74,40,2.3,ID,1680050050
76,mul,20.0667,79.6667,76.98,49,2,5.95,IN,1680050050
77,brigantine,39.4101,-74.3646,45.14,85,0,8.01,US,1680050050
78,queenstown,-31.8976,26.8753,57.38,81,3,4.38,ZA,1680050050
79,kaitangata,-46.2817,169.8464,52.11,51,81,6.76,NZ,1680050051
80,georgetown,5.4112,100.3354,82.33,94,20,3.44,MY,1680049820
81,chiredzi,-21.05,31.6667,59.88,87,11,2.46,ZW,1680050051
82,broome,42.2506,-75.833,38.7,72,99,1.99,US,1680050051
83,aykhal,66.0,111.5,-3.39,93,100,2.86,RU,1680050051
84,east london,-33.0153,27.9116,64.85,71,19,22.55,ZA,1680049824
85,mayumba,-3.432,10.6554,77.86,85,100,1.63,GA,1680050052
86,bambous virieux,-20.3428,57.7575,74.21,88,20,3.44,MU,1680050053
87,zhigansk,66.7697,123.3711,-8.84,93,88,12.26,RU,1680050053
88,saquarema,-22.92,-42.5103,75.34,84,100,6.8,BR,1680050053
89,bandarbeyla,9.4942,50.8122,79.57,82,70,4.9,SO,1680050053
90,concord,37.978,-122.0311,53.82,80,100,11.5,US,1680049836
91,santa rosa,14.3122,121.1114,85.1,63,100,9.48,PH,1680050030
92,xining,36.6167,101.7667,39.99,39,12,1.95,CN,1680050054
93,kitgum,3.2783,32.8867,66.88,88,11,2.57,UG,1680050054
94,kodiak,57.79,-152.4072,45.91,53,20,3.44,US,1680050013
95,constitucion,-35.3333,-72.4167,56.79,84,54,23.0,CL,1680050054
96,olinda,-8.0089,-34.8553,82.13,69,40,13.8,BR,1680050054
97,aksay,47.26,39.87,52.25,89,100,5.99,RU,1680050055
98,poum,-20.2333,164.0167,79.72,76,100,6.76,NC,1680050055
99,egvekinot,66.3167,-179.1667,20.01,93,100,4.56,RU,1680050055
100,puerto ayora,-0.7393,-90.3518,80.55,91,72,5.01,EC,1680050056
101,kununurra,-15.7667,128.7333,85.98,70,100,3.44,AU,1680049925
102,strai,58.2,7.9,38.62,94,100,0.0,NO,1680050056
103,northam,51.0333,-4.2167,52.39,96,100,15.39,GB,1680050057
104,saldanha,-33.0117,17.9442,60.85,73,83,18.3,ZA,1680050057
105,cuamba,-14.8031,36.5372,65.84,99,98,3.51,MZ,1680050057
106,sao jose de ribamar,-2.5619,-44.0542,79.18,86,100,10.07,BR,1680050057
107,san jose,37.3394,-121.895,51.39,88,75,5.75,US,1680049912
108,mehamn,71.0357,27.8492,24.71,93,75,2.3,NO,1680050058
109,san rafael del sur,11.8485,-86.4384,85.17,53,0,12.12,NI,1680050058
110,sitka,57.0531,-135.33,42.69,65,100,12.66,US,1680050058
111,katsuura,35.1333,140.3,51.71,93,100,7.05,JP,1680050058
112,mujiayingzi,42.1167,118.7833,55.06,18,0,8.97,CN,1680050059
113,comodoro rivadavia,-45.8667,-67.5,49.86,53,0,18.41,AR,1680049806
114,mar del plata,-38.0023,-57.5575,80.1,64,0,9.22,AR,1680049933
115,bull savanna,17.8868,-77.5902,75.72,72,97,2.3,JM,1680050059
116,mahebourg,-20.4081,57.7,74.25,88,20,3.44,MU,1680050059
117,saurimo,-9.6608,20.3916,64.31,97,100,1.74,AO,1680050060
118,fort nelson,58.8053,-122.7002,49.59,27,40,12.66,CA,1680050060
119,mahibadhoo,3.7833,72.9667,82.65,67,100,2.19,MV,1680050060
120,barrow,71.2906,-156.7887,5.02,78,100,17.27,US,1680050060
121,olafsvik,64.8945,-23.7142,31.1,63,100,24.05,IS,1680050061
122,borogontsy,62.6683,131.1683,17.8,95,100,7.23,RU,1680050061
123,hit,33.6416,42.8251,64.13,55,0,8.86,IQ,1680050061
124,vestmannaeyjar,63.4427,-20.2734,36.45,71,100,24.67,IS,1680050061
125,qaanaaq,77.484,-69.3632,-12.39,62,70,7.47,GL,1680050062
126,calamar,10.2511,-74.9146,79.21,75,0,10.74,CO,1680050062
127,narsaq,60.9167,-46.05,32.22,68,17,10.07,GL,1680050062
128,jefferson city,38.5767,-92.1735,48.11,57,0,0.0,US,1680049984
129,tumut,-35.3,148.2167,58.19,89,100,11.39,AU,1680050063
130,lagoa,39.05,-27.9833,56.35,79,0,32.84,PT,1680050063
131,seoul,37.5683,126.9778,49.57,64,20,2.3,KR,1680049929
132,baoding,38.8511,115.4903,61.18,30,0,4.85,CN,1680050063
133,gat,31.61,34.7642,58.82,69,0,3.89,IL,1680050064
134,bredasdorp,-34.5322,20.0403,60.03,67,100,9.4,ZA,1680050064
135,serenje,-13.2325,30.2352,57.02,97,46,4.09,ZM,1680050064
136,that phanom,16.9364,104.7104,75.22,62,24,10.65,TH,1680050064
137,port lincoln,-34.7333,135.8667,64.31,69,91,13.85,AU,1680049836
138,tigil,57.8,158.6667,25.95,83,99,16.64,RU,1680049988
139,alta floresta,-9.8756,-56.0861,71.67,95,100,2.15,BR,1680050065
140,chuy,-33.6971,-53.4616,68.68,84,0,11.54,UY,1680050066
141,karymskoye,51.6167,114.35,37.47,65,100,10.89,RU,1680050066
142,port blair,11.6667,92.75,77.04,88,40,2.3,IN,1680050066
143,norman wells,65.282,-126.8329,33.84,40,75,13.8,CA,1680050066
144,carnarvon,-24.8667,113.6333,75.74,71,100,5.19,AU,1680050067
145,rocha,-34.4833,-54.3333,62.85,85,0,7.47,UY,1680050067
146,tars,36.9188,34.8784,57.58,86,20,6.8,TR,1680050067
147,moralillo,22.2167,-97.9,79.03,83,40,10.71,MX,1680050067
148,ashland,40.8167,-82.2665,42.87,77,100,4.12,US,1680050068
149,surt,31.2089,16.5887,60.13,67,6,14.32,LY,1680050068
150,hofn,64.2539,-15.2082,30.9,94,100,21.27,IS,1680050068
151,phalaborwa,-23.943,31.1411,61.88,68,3,6.06,ZA,1680050068
152,hithadhoo,-0.6,73.0833,82.45,76,96,5.28,MV,1680050068
153,bargi,22.9833,79.8667,72.77,32,0,3.74,IN,1680050069
154,nuuk,64.1835,-51.7216,5.86,82,19,8.57,GL,1680050069
155,wanning,18.8003,110.3967,77.61,86,77,4.52,CN,1680050069
156,fasa,28.9383,53.6482,47.44,66,0,6.91,IR,1680050070
157,chumphon,10.3333,98.8333,77.72,73,100,2.75,TH,1680050070
158,san luis,-33.295,-66.3356,73.96,53,0,7.78,AR,1680049891
159,port macquarie,-31.4333,152.9167,68.9,99,100,3.29,AU,1680050070
160,tromso,69.6496,18.957,18.37,79,0,0.0,NO,1680050070
161,mackay,-21.15,149.2,84.69,63,100,3.85,AU,1680050071
162,vysokogornyy,50.1167,139.15,39.29,52,86,11.03,RU,1680050071
163,jambi,-1.6,103.6167,76.51,94,56,1.45,ID,1680050071
164,agua branca,-5.8922,-42.6361,73.72,92,100,3.94,BR,1680050071
165,khatanga,71.9667,102.5,-6.54,96,100,13.13,RU,1680050072
166,port alfred,-33.5906,26.891,61.18,80,32,7.0,ZA,1680050017
167,moron,-34.6534,-58.6198,78.55,56,0,5.57,AR,1680050072
168,bonavista,48.6499,-53.1147,30.0,92,100,16.28,CA,1680050072
169,jalu,29.0331,21.5482,61.29,46,2,14.5,LY,1680050072
170,alibag,18.6411,72.8792,77.07,71,5,10.76,IN,1680050073
171,champerico,14.3,-91.9167,88.34,65,1,9.04,GT,1680050073
172,igurusi,-8.85,33.85,63.09,97,100,0.76,TZ,1680050073
173,naze,28.3667,129.4833,59.92,63,100,17.11,JP,1680050073
174,sekoma,-24.4,23.8833,63.97,74,4,7.05,BW,1680050073
175,moindou,-21.6924,165.677,84.85,58,100,5.59,NC,1680050074
176,atasu,48.6814,71.6433,32.95,75,0,6.17,KZ,1680050074
177,quatre cocos,-20.2078,57.7625,74.08,82,29,7.07,MU,1680050074
178,vardo,70.3705,31.1107,28.38,69,40,9.22,NO,1680050074
179,namibe,-15.1961,12.1522,74.52,89,52,12.33,AO,1680050074
180,mayo,38.8876,-76.5119,52.21,54,0,5.75,US,1680050075
181,lagos,6.5833,3.75,82.72,86,73,4.25,NG,1680049814
182,ondjiva,-17.0667,15.7333,71.64,83,69,2.3,AO,1680050075
183,corralillo,22.9819,-80.5856,78.24,69,100,6.44,CU,1680050076
184,oriximina,-1.7656,-55.8661,75.34,94,95,1.74,BR,1680050076
185,santa rosalia,27.3167,-112.2833,67.8,29,0,3.33,MX,1680049881
186,verkhnevilyuysk,63.4453,120.3167,0.23,89,72,6.42,RU,1680050076
187,kahului,20.8947,-156.47,84.22,64,40,8.05,US,1680049807
188,vao,-22.6667,167.4833,76.71,79,62,17.25,NC,1680050077
189,hohhot,40.8106,111.6522,54.91,24,0,4.47,CN,1680050077
190,ulladulla,-35.35,150.4667,66.78,73,99,11.63,AU,1680050077
191,aksu,41.1231,80.2644,49.93,20,0,4.12,CN,1680050077
192,birecik,37.0294,37.9903,49.21,83,0,6.98,TR,1680050077
193,komsomolskiy,40.4272,71.7189,52.52,54,100,9.22,UZ,1680050078
194,sinop,41.7711,34.8709,37.49,98,100,6.35,TR,1680050078
195,hamilton,39.1834,-84.5333,44.73,78,75,6.91,US,1680049927
196,xai-xai,-25.0519,33.6442,62.98,84,0,6.06,MZ,1680050078
197,dno,57.8277,29.9637,27.99,96,100,9.62,RU,1680050078
198,borovskoy,53.8,64.15,38.61,95,100,12.24,KZ,1680050079
199,codrington,-38.2667,141.9667,59.52,71,100,10.36,AU,1680050079
200,salalah,17.0151,54.0924,82.49,78,75,1.14,OM,1680050079
201,kenai,60.5544,-151.2583,35.69,69,40,6.91,US,1680050079
202,san patricio,28.017,-97.5169,71.83,48,100,13.76,US,1680050080
203,flinders,-34.5833,150.8552,74.17,80,100,7.0,AU,1680050080
204,izhma,65.0083,53.9113,10.53,94,58,7.96,RU,1680050080
205,oranjemund,-28.55,16.4333,60.33,93,22,11.54,NA,1680050080
206,kudahuvadhoo,2.6708,72.8944,82.02,72,100,3.09,MV,1680050081
207,kaeo,-35.1,173.7833,69.33,54,2,10.65,NZ,1680050081
208,cabo san lucas,22.8909,-109.9124,77.31,41,75,0.0,MX,1680050081
209,sola,-13.8833,167.55,81.75,73,100,4.83,VU,1680050081
210,westport,41.1415,-73.3579,47.75,50,0,4.61,US,1680050081
211,itaueira,-7.6033,-43.0256,73.71,57,100,3.71,BR,1680050081
212,saint-philippe,-21.3585,55.7679,74.79,68,87,4.18,RE,1680050082
213,brandfort,-28.7001,26.4597,54.81,79,100,14.74,ZA,1680050082
214,ostrovnoy,68.0531,39.5131,24.31,93,100,5.21,RU,1680050082
215,vikhorevka,56.1201,101.1636,33.39,94,100,12.35,RU,1680050082
216,san jeronimo,-11.9472,-75.2829,49.37,87,91,5.03,PE,1680050082
217,luderitz,-26.6481,15.1594,60.91,84,0,23.58,NA,1680050083
218,ewa beach,21.3156,-158.0072,82.6,75,75,11.5,US,1680050083
219,ahipara,-35.1667,173.1667,63.52,50,28,15.95,NZ,1680050083
220,lulea,65.5842,22.1547,21.27,93,100,6.91,SE,1680050083
221,opuwo,-18.0607,13.84,65.79,80,39,3.22,NA,1680050084
222,touros,-5.1989,-35.4608,82.18,72,100,15.73,BR,1680050084
223,sungaipenuh,-2.0833,101.3833,69.94,77,95,1.52,ID,1680050084
224,menongue,-14.6585,17.691,62.73,92,45,2.33,AO,1680050084
225,deulgaon raja,20.0167,76.0333,73.6,30,3,6.67,IN,1680050085
226,mbandaka,0.0487,18.2603,71.11,93,32,1.74,CD,1680050085
227,mtwara,-10.2667,40.1833,76.33,94,75,11.5,TZ,1680050085
228,kashi,39.4547,75.9797,56.41,19,65,8.95,CN,1680050085
229,bundaberg,-24.85,152.35,87.22,65,100,3.0,AU,1680050085
230,saint-augustin,51.226,-58.6502,32.41,97,100,2.1,CA,1680050085
231,bokoro,12.3807,17.0568,82.17,18,96,11.7,TD,1680050086
232,lompoc,34.6391,-120.4579,59.85,74,100,12.66,US,1680049800
233,sabha,27.0377,14.4283,64.17,33,0,20.4,LY,1680050086
234,airai,-8.9266,125.4092,69.64,64,23,2.53,TL,1680050086
235,la gomera,14.0833,-91.05,82.26,68,30,5.75,GT,1680050087
236,impfondo,1.6381,18.0667,70.74,99,52,2.82,CG,1680050087
237,timizart,36.8,4.2667,49.35,72,0,5.46,DZ,1680050087
238,san policarpo,12.1791,125.5072,80.91,83,100,10.58,PH,1680050087
239,bubaque,11.2833,-15.8333,78.62,69,100,12.39,GW,1680050087
240,iquique,-20.2208,-70.1431,73.44,81,96,1.83,CL,1680049922
241,elban,50.1018,136.5094,36.61,67,67,10.02,RU,1680050088
242,sault sainte marie,46.5168,-84.3333,32.29,66,100,4.61,CA,1680049935
243,pedro juan caballero,-22.5472,-55.7333,70.54,81,4,6.26,PY,1680050088
244,swarzedz,52.4129,17.085,28.72,60,0,2.3,PL,1680050088
245,severo-kurilsk,50.6789,156.125,31.64,77,33,14.45,RU,1680049933
246,coihaique,-45.5752,-72.0662,36.21,98,100,7.49,CL,1680050089
247,buala,-8.145,159.5921,85.3,70,90,3.71,SB,1680050089
248,teya,60.3778,92.6267,35.89,99,100,11.01,RU,1680050089
249,rawson,-43.3002,-65.1023,65.03,43,100,12.41,AR,1680050089
250,kieta,-6.2167,155.6333,83.55,71,92,3.18,PG,1680050090
251,port elizabeth,-33.918,25.5701,64.09,76,0,20.71,ZA,1680050090
252,sao jose da coroa grande,-8.8978,-35.1478,76.24,87,0,3.98,BR,1680050090
253,moberly,39.4184,-92.4382,46.92,55,1,7.0,US,1680050090
254,geraldton,-28.7667,114.6,75.61,73,40,18.41,AU,1680050090
255,campos altos,-19.6961,-46.1714,65.25,89,80,0.09,BR,1680050090
256,umkomaas,-30.2067,30.7978,69.67,54,100,7.45,ZA,1680050091
257,hualmay,-11.0964,-77.6139,74.52,82,100,12.37,PE,1680050091
258,dillon,34.4166,-79.3712,66.15,89,100,7.9,US,1680050091
259,novobirilyussy,56.9514,90.6661,38.77,94,100,12.12,RU,1680050091
260,clinton,42.587,-82.9199,46.94,63,20,3.44,US,1680049836
261,galle,6.0367,80.217,77.77,87,100,4.21,LK,1680050091
262,sokolo,14.7328,-6.1219,88.81,11,0,5.61,ML,1680050092
263,gvarv,59.3875,9.1737,33.58,97,98,4.45,NO,1680050092
264,phalodi,27.1333,72.3667,74.97,40,3,9.06,IN,1680050092
265,marsabit,2.3284,37.9899,69.19,65,18,7.65,KE,1680050092
266,bathsheba,13.2167,-59.5167,79.41,65,40,17.27,BB,1680050093
267,mikhaylovka,50.06,43.2379,47.79,73,100,17.45,RU,1680050093
268,noumea,-22.2763,166.4572,84.99,99,100,10.87,NC,1680049803
269,tongliao,43.6125,122.2653,52.48,29,6,7.34,CN,1680050093
270,college,64.8569,-147.8028,30.07,68,100,6.91,US,1680050093
271,sao gabriel da cachoeira,-0.1303,-67.0892,73.04,98,96,0.74,BR,1680050093
272,port keats,-14.25,129.55,86.25,56,92,4.0,AU,1680050094
273,kiama,-34.6833,150.8667,74.37,81,100,3.0,AU,1680050094
274,kiunga,-6.1219,141.2906,85.98,65,100,2.39,PG,1680050094
275,coahuayana,18.7333,-103.6833,74.44,75,0,3.91,MX,1680050094
276,morros,-9.4467,-46.3003,75.85,71,100,2.64,BR,1680050094
277,lucapa,-8.4192,20.7447,66.36,97,100,2.73,AO,1680050095
278,prince rupert,54.3161,-130.3201,51.89,35,0,12.66,CA,1680050095
279,eureka,40.8021,-124.1637,50.61,79,100,10.0,US,1680050078
280,chermoz,58.787,56.1489,18.55,86,6,9.04,RU,1680050095
281,huambo,-12.7761,15.7392,57.76,98,71,2.28,AO,1680050095
282,meulaboh,4.1363,96.1285,76.19,89,100,3.27,ID,1680050096
283,mporokoso,-9.3727,30.125,58.84,98,96,4.5,ZM,1680050096
284,foumban,5.7291,10.9001,70.36,55,90,1.9,CM,1680050096
285,torres,-29.3353,-49.7269,71.83,94,0,3.13,BR,1680050096
286,talnakh,69.4865,88.3972,-17.45,98,89,6.49,RU,1680050096
287,the valley,18.217,-63.0578,78.82,78,1,19.6,AI,1680049846
288,tuktoyaktuk,69.4541,-133.0374,12.2,79,100,19.57,CA,1680050097
289,sao joao da barra,-21.6403,-41.0511,78.89,90,100,3.27,BR,1680050097
290,haines junction,60.7522,-137.5108,40.95,30,100,4.61,CA,1680050097
291,awbari,26.5921,12.7805,64.51,28,0,15.08,LY,1680050097
292,tabuk,17.4189,121.4443,79.32,75,100,1.88,PH,1680050097
293,bontang,0.1333,117.5,79.79,86,100,2.89,ID,1680050098
294,richards bay,-28.783,32.0377,66.34,68,0,11.12,ZA,1680050098
295,coxim,-18.5067,-54.76,78.93,72,53,5.66,BR,1680050098
296,valdivia,-39.8142,-73.2459,53.69,96,19,1.88,CL,1680049922
297,aasiaat,68.7098,-52.8699,-12.82,100,93,4.38,GL,1680050098
298,la maddalena,41.2142,9.4083,48.25,73,0,13.02,IT,1680050099
299,bure,10.7,37.0667,62.78,31,100,2.06,ET,1680050099
300,clyde river,70.4692,-68.5914,-18.17,76,0,2.3,CA,1680050099
301,bayeux,-7.125,-34.9322,81.23,83,40,5.75,BR,1680050099
302,karlskrona,56.1616,15.5866,25.25,48,99,2.84,SE,1680050099
303,faanui,-16.4833,-151.75,82.62,73,60,9.53,PF,1680050100
304,aripuana,-9.1667,-60.6333,74.1,92,100,1.12,BR,1680050100
305,lindi,-10.0,39.7167,73.36,98,100,2.95,TZ,1680050100
306,yumen,40.2833,97.2,45.48,18,100,8.9,CN,1680050100
307,port augusta,-32.5,137.7667,71.19,51,9,11.14,AU,1680050100
308,tongchuan,35.0806,109.0897,58.5,35,6,3.27,CN,1680050102
309,samarai,-10.6167,150.6667,88.16,57,12,7.16,PG,1680050103
310,ormara,25.2088,64.6357,75.45,80,0,7.29,PK,1680050103
311,ust-tsilma,65.441,52.1498,12.69,94,31,7.81,RU,1680050104
312,altagracia de orituco,9.8601,-66.3814,69.78,91,68,5.84,VE,1680050104
313,marrakesh,31.6315,-8.0083,75.27,31,0,6.91,MA,1680049934
314,owase,34.0667,136.2,60.55,40,100,4.65,JP,1680050105
315,carutapera,-1.195,-46.02,80.92,77,100,10.96,BR,1680050105
316,beloha,-25.1667,45.05,62.4,74,0,5.59,MG,1680050106
317,ugoofaaru,5.6667,73.0,80.83,75,11,2.42,MV,1680050106
318,labuhan,-6.8844,112.2051,80.85,74,100,3.4,ID,1680050106
319,cayenne,4.9333,-52.3333,73.44,100,100,4.61,GF,1680050106
320,vanavara,60.34,102.2797,16.0,95,100,4.45,RU,1680050107
321,dumas,35.8656,-101.9732,51.53,17,0,12.66,US,1680049950
322,manaure,11.7751,-72.4445,77.14,82,100,22.97,CO,1680050107
323,byron bay,-28.65,153.6167,70.72,93,100,5.26,AU,1680050107
324,darovskoy,58.77,47.9564,26.62,90,90,5.77,RU,1680050108
325,macheng,31.1783,115.0319,60.66,62,100,0.87,CN,1680050108
326,marawi,7.9986,124.2928,73.6,88,100,3.78,PH,1680050108
327,sovetskiy,61.3614,63.5842,13.95,93,49,7.85,RU,1680050108
328,normandin,48.8333,-72.5321,30.51,69,100,6.91,CA,1680050108
329,padang,-0.9492,100.3543,75.25,83,48,2.1,ID,1680050109
330,asosa,10.0667,34.5333,67.91,21,28,3.53,ET,1680050109
331,kutum,14.2,24.6667,66.83,18,5,8.97,SD,1680050109
332,manadhoo,5.7667,73.3833,81.0,75,17,2.57,MV,1680050110
333,washougal,45.5826,-122.3534,48.07,87,100,18.41,US,1680050110
334,tadine,-21.55,167.8833,80.4,75,41,13.98,NC,1680050110
335,leh,34.1667,77.5833,14.0,83,43,6.85,IN,1680050111
336,sinnamary,5.3833,-52.95,79.18,78,100,16.06,GF,1680050111
337,sept-iles,50.2001,-66.3821,32.05,95,100,3.44,CA,1680049817
338,labuan,5.2767,115.2417,80.96,89,40,0.0,MY,1680050111
339,antalaha,-14.9003,50.2788,75.4,88,100,3.74,MG,1680050112
340,kavaratti,10.5669,72.642,80.11,72,17,4.7,IN,1680050112
341,souillac,-20.5167,57.5167,71.98,88,20,3.44,MU,1680050112
342,veraval,20.9,70.3667,72.79,77,0,10.2,IN,1680050112
343,forest grove,45.5198,-123.1107,46.04,86,100,5.99,US,1680049836
344,berlevag,70.8578,29.0864,24.75,86,100,4.61,NO,1680050113
345,sydney,-33.8679,151.2073,75.31,78,75,14.97,AU,1680050049
346,omboue,-1.5746,9.2618,77.23,87,100,2.95,GA,1680050113
347,walvis bay,-22.9575,14.5053,61.68,90,0,7.78,NA,1680049867
348,vila franca do campo,37.7167,-25.4333,59.41,83,3,20.11,PT,1680050114
349,upernavik,72.7868,-56.1549,-25.74,100,9,4.59,GL,1680050114
350,blythe,33.6103,-114.5964,79.03,8,0,6.17,US,1680049849
351,dauphin,51.1494,-100.0502,15.94,67,20,12.66,CA,1680050114
352,pestretsy,55.7531,49.6545,32.14,81,99,11.03,RU,1680050114
353,buzmeyin,38.0507,58.2056,55.13,62,0,2.3,TM,1680050115
354,bambari,5.768,20.6757,75.09,78,100,2.13,CF,1680050115
355,ust-kut,56.7938,105.7672,28.47,95,100,4.5,RU,1680050115
356,balabac,7.9868,117.0645,83.26,70,100,11.48,PH,1680050116
357,manta,-0.95,-80.7333,82.18,74,0,5.75,EC,1680050116
358,aklavik,68.2191,-135.0107,11.93,81,84,12.37,CA,1680049894
359,ferme-neuve,46.7001,-75.4493,20.35,95,32,1.72,CA,1680050117
360,isangel,-19.55,169.2667,82.54,72,99,7.09,VU,1680050117
361,laives,46.4228,11.3348,46.29,31,100,1.63,IT,1680050117
362,kaseda,31.4167,130.3167,58.8,54,100,2.75,JP,1680050117
363,kupang,-10.1667,123.5833,82.98,89,20,2.3,ID,1680050117
364,umm lajj,25.0213,37.2685,72.84,47,0,11.41,SA,1680050118
365,nyurba,63.2842,118.3319,-0.8,92,84,4.94,RU,1680050118
366,petropavlovka,50.6114,105.3196,41.59,60,21,3.67,RU,1680050118
367,vanimo,-2.6741,141.3028,81.41,75,80,6.89,PG,1680050118
368,xinmin,41.9908,122.8253,52.09,42,64,15.05,CN,1680050119
369,dingle,10.9995,122.6711,82.99,72,100,11.65,PH,1680050119
370,forio,40.7342,13.8646,50.92,79,5,1.01,IT,1680050119
371,marsa matruh,31.3525,27.2453,59.95,67,0,21.27,EG,1680050119
372,atar,20.5169,-13.0499,82.26,8,5,5.59,MR,1680050119
373,warmbad,-28.45,18.7333,61.23,42,0,5.23,NA,1680050119
374,saint anthony,45.0205,-93.218,32.67,75,100,14.97,US,1680050120
375,paraiso,9.8383,-83.8656,70.66,98,93,4.74,CR,1680050035
376,maningrida,-12.0667,134.2667,84.78,62,100,9.04,AU,1680050121
377,portland,45.5234,-122.6762,47.88,90,100,7.0,US,1680050014
378,isla vista,34.4133,-119.861,60.82,66,100,3.0,US,1680049909
379,lavrentiya,65.5833,-171.0,25.23,95,100,14.05,RU,1680050121
380,svetlogorsk,52.6333,29.7333,27.03,94,100,21.97,BY,1680050121
381,buncrana,55.1333,-7.45,49.51,93,100,8.88,IE,1680050122
382,longyearbyen,78.2186,15.6401,4.84,78,75,8.05,SJ,1680050122
383,kushmurun,52.4503,64.6311,31.53,93,100,5.48,KZ,1680050122
384,lata,40.1629,-8.3327,58.08,71,9,1.05,PT,1680050122
385,srednekolymsk,67.45,153.6833,15.85,79,100,12.53,RU,1680050123
386,batemans bay,-35.7167,150.1833,69.1,96,100,3.36,AU,1680050123
387,nieves,15.3274,120.9485,83.71,58,100,7.45,PH,1680050123
388,esmeralda,21.8525,-78.1169,78.42,67,100,6.38,CU,1680050123
389,muroto,33.2833,134.15,57.81,56,100,10.87,JP,1680050124
390,belaya gora,68.5333,146.4167,2.17,80,74,15.48,RU,1680050124
391,nantucket,41.2835,-70.0995,41.11,83,100,5.75,US,1680050016
392,amahai,-3.3333,128.9167,80.67,84,100,1.88,ID,1680050125
393,safaga,26.7292,33.9365,73.58,32,0,7.72,EG,1680050125
394,twin falls,42.3505,-114.6445,47.93,29,20,17.27,US,1680049986
395,chapais,49.7834,-74.8492,22.78,94,92,1.52,CA,1680049960
396,ilulissat,69.2167,-51.1,-17.23,92,5,4.54,GL,1680050126
397,sechura,-5.5569,-80.8222,79.65,85,97,9.04,PE,1680050126
398,bandar-e lengeh,26.5579,54.8807,71.71,68,0,9.22,IR,1680050126
399,timberlake,37.3207,-79.2575,53.56,58,100,4.61,US,1680050127
400,alofi,-19.0595,-169.9187,84.09,79,75,9.22,NU,1680050127
401,ilhabela,-23.7781,-45.3581,74.95,90,100,8.23,BR,1680050127
402,muros,42.7762,-9.0603,52.09,62,46,19.93,ES,1680050127
403,joshimath,30.5667,79.5667,43.07,43,37,8.1,IN,1680050128
404,berasia,23.6333,77.4333,70.25,27,5,5.35,IN,1680050128
405,mecca,21.4267,39.8261,71.19,46,0,5.75,SA,1680049909
406,ola,59.5833,151.2833,17.15,88,100,5.48,RU,1680050128
407,luena,-11.7833,19.9167,64.58,100,99,4.61,AO,1680050129
408,buraydah,26.326,43.975,57.65,27,0,6.24,SA,1680050129
409,siddapur,14.3333,74.8833,64.36,78,9,3.47,IN,1680050129
410,colares,38.7992,-9.4469,63.75,65,29,5.01,PT,1680050034
411,san rafael,-34.6177,-68.3301,76.57,30,0,7.11,AR,1680050129
412,janauba,-15.8025,-43.3089,74.84,40,100,10.27,BR,1680050129
413,boyolangu,-8.1181,111.8935,82.56,75,99,1.25,ID,1680050130
414,acarau,-2.8856,-40.12,77.27,87,98,8.28,BR,1680050130
415,dumai,1.6833,101.45,79.03,85,5,2.62,ID,1680050130
416,hami,42.8,93.45,56.34,14,1,4.23,CN,1680050130
417,jinzhou,41.1078,121.1417,51.24,48,22,1.9,CN,1680050131
418,ust-nera,64.5667,143.2,20.79,88,100,5.59,RU,1680050131
419,gazojak,41.1875,61.4036,65.08,27,63,15.08,TM,1680050131
420,bilma,18.6853,12.9164,75.27,16,11,4.72,NE,1680050131
421,serpa,37.9458,-7.5975,57.16,57,100,2.53,PT,1680050131
422,huilong,31.8111,121.655,57.92,49,85,10.98,CN,1680050132
423,tilichiki,60.4667,166.1,20.34,76,5,13.47,RU,1680050132
424,harper,4.375,-7.7169,77.27,91,5,2.66,LR,1680050132
425,seydi,39.4816,62.9137,63.52,47,71,13.98,TM,1680050132
426,anadyr,64.75,177.4833,27.1,92,75,22.37,RU,1680049847
427,san quintin,30.4833,-115.95,59.38,70,0,15.08,MX,1680050133
428,karakol,42.4907,78.3936,39.04,30,0,2.19,KG,1680050133
429,henties bay,-22.116,14.2845,61.16,95,7,3.11,NA,1680050133
430,boa vista,2.8197,-60.6733,85.98,51,0,11.5,BR,1680050051
431,koppies,-27.2418,27.5742,54.66,82,71,5.97,ZA,1680050133
432,chara,56.9064,118.2631,19.22,56,40,4.16,RU,1680050133
433,garowe,8.4054,48.4845,76.62,73,42,10.45,SO,1680050134
434,capaci,38.1711,13.2393,51.4,73,0,6.91,IT,1680050134
435,yangambi,0.8102,24.4336,69.37,98,100,3.31,CD,1680050134
436,grand gaube,-20.0064,57.6608,74.37,74,100,7.31,MU,1680050134
437,dharchula,29.85,80.5333,53.24,38,18,7.29,IN,1680050134
438,garissa,-0.4536,39.6401,80.26,71,69,11.32,KE,1680050135
439,coquimbo,-29.9533,-71.3436,62.33,88,40,5.75,CL,1680050057
440,sydney mines,46.2367,-60.2177,32.81,95,100,8.05,CA,1680050135
441,paamiut,61.994,-49.6678,13.33,71,47,8.46,GL,1680050135
442,mattru,7.6244,-11.8332,78.13,81,0,3.33,SL,1680050135
443,visby,57.6409,18.296,19.81,92,42,2.3,SE,1680050136
444,baykit,61.67,96.37,16.56,95,100,2.77,RU,1680049933
445,tsiroanomandidy,-18.7667,46.0333,67.59,95,100,2.51,MG,1680050136
446,lasa,46.6166,10.7002,37.69,74,100,2.75,IT,1680050136
447,atambua,-9.1061,124.8925,80.06,70,38,1.61,ID,1680050136
448,udobnaya,44.1932,41.5529,46.33,92,100,2.71,RU,1680050137
449,minsk,53.9,27.5667,28.15,94,100,18.16,BY,1680050137
450,chupa,66.27,33.0549,19.92,90,100,9.24,RU,1680049931
451,batagay-alyta,67.8006,130.4114,-0.92,82,14,4.05,RU,1680050137
452,barreirinha,-2.7933,-57.07,75.7,93,100,2.35,BR,1680050137
453,maloy,61.9353,5.1136,28.72,78,5,6.69,NO,1680050137
454,lakheri,25.6667,76.1667,71.42,30,0,5.82,IN,1680050138
455,rivera,-30.9053,-55.5508,66.9,55,0,1.25,UY,1680050138
456,pomabamba,-8.8333,-77.4667,52.56,85,100,3.65,PE,1680050138
457,oktyabrskoye,43.0645,44.7417,41.14,93,0,8.95,RU,1680050138
458,banjar,-8.19,114.9675,78.19,85,100,3.42,ID,1680050138
459,wuning,29.2589,120.2311,53.13,68,100,1.88,CN,1680050139
460,thanh hoa,19.8,105.7667,67.08,84,100,3.67,VN,1680050139
461,spornoye,50.8448,37.2913,46.45,97,100,10.2,RU,1680050139
462,lufkin,31.3382,-94.7291,64.53,58,100,5.26,US,1680050139
463,russell,32.3502,-85.1999,70.83,94,20,0.0,US,1680049842
464,nosy varika,-20.5833,48.5333,72.59,90,100,6.71,MG,1680050140
465,sioux lookout,50.1001,-91.917,15.87,53,75,9.22,CA,1680050087
466,bulalacao,12.3254,121.3435,85.89,56,100,8.61,PH,1680050140
467,matucana,-11.85,-76.4,60.39,92,100,1.97,PE,1680050140
468,upata,8.0086,-62.3989,76.19,67,100,7.25,VE,1680050140
469,watertown,42.3709,-71.1828,42.44,64,20,3.44,US,1680049842
470,agropoli,40.3469,14.9966,41.09,51,1,9.33,IT,1680050141
471,havre-saint-pierre,50.2334,-63.5986,32.36,86,100,5.75,CA,1680050141
472,kasama,-10.2129,31.1808,59.32,99,99,2.48,ZM,1680050141
473,chifeng,42.2683,118.9636,55.31,17,0,10.67,CN,1680050141
474,caravelas,-17.7125,-39.2481,77.07,80,0,7.09,BR,1680050142
475,mlonggo,-6.5333,110.7,81.48,76,96,3.04,ID,1680050142
476,chirongui,-12.9319,45.1483,78.73,72,100,0.49,YT,1680050142
477,loiza,18.4313,-65.8802,78.8,80,40,11.5,PR,1680050142
478,concepcion,-36.827,-73.0498,57.0,82,0,9.22,CL,1680049921
479,beringovskiy,63.05,179.3167,30.65,98,100,14.07,RU,1680050143
480,rumoi,43.9344,141.6428,43.65,56,1,4.7,JP,1680050143
481,teknaf,20.8624,92.3058,75.88,86,18,3.74,BD,1680050143
482,dombas,62.0696,9.1235,8.82,99,100,2.75,NO,1680050143
483,sangar,63.9242,127.4739,2.62,91,24,5.75,RU,1680050143
484,fortuna,40.5982,-124.1573,50.34,85,100,8.01,US,1680049847
485,pangnirtung,66.1451,-65.7125,9.91,94,100,1.34,CA,1680050144
486,bad hofgastein,47.1667,13.1,31.14,82,100,1.01,AT,1680050144
487,puri,19.8,85.85,79.32,82,17,13.91,IN,1680050144
488,yar-sale,66.8333,70.8333,-14.06,100,100,6.76,RU,1680050144
489,arman,59.7,150.1667,17.02,90,100,4.27,RU,1680050144
490,cacu,-18.5567,-51.1308,72.64,87,77,4.36,BR,1680050144
491,hukuntsi,-24.0,21.75,66.99,71,83,10.89,BW,1680050145
492,kirakira,-10.4544,161.9205,83.59,72,100,6.96,SB,1680050145
493,newport,51.5877,-2.9984,51.12,94,100,6.02,GB,1680050145
494,cairns,-16.9167,145.7667,89.11,71,40,5.75,AU,1680049979
495,whitehorse,60.7161,-135.0538,39.97,36,75,6.91,CA,1680050145
496,yinchuan,38.4681,106.2731,52.29,11,1,5.44,CN,1680050146
497,sorong,-0.8833,131.25,81.66,75,100,4.65,ID,1680050146
498,nouakchott,18.0858,-15.9785,69.73,62,0,11.21,MR,1680049876
499,bani walid,31.7566,13.9942,53.62,84,9,6.71,LY,1680050146
500,wajir,1.7471,40.0573,81.41,61,50,12.97,KE,1680050146
501,nola,40.922,14.5329,51.03,82,0,2.39,IT,1680050147
502,guerrero negro,27.9769,-114.0611,62.44,51,0,19.84,MX,1680050147
503,chicama,-7.8447,-79.1469,75.74,70,100,5.06,PE,1680050147
504,tazovskiy,67.4667,78.7,-3.28,99,100,3.38,RU,1680050148
505,san juan de flores,14.2667,-87.0333,83.88,43,0,2.64,HN,1680050148
506,middelburg,-25.7751,29.4648,55.02,77,0,3.22,ZA,1680050148
507,victoria,22.2855,114.1577,68.38,91,100,15.99,HK,1680049994
508,olesnica,51.2134,17.3899,31.62,65,38,3.44,PL,1680050148
509,sai buri,6.7013,101.6168,76.71,77,8,4.9,TH,1680050149
510,kaifeng,34.7911,114.3483,61.63,37,9,9.33,CN,1680050149
511,turayf,31.6725,38.6637,55.65,54,0,6.91,SA,1680050149
512,auki,-8.7676,160.7034,83.59,76,100,3.96,SB,1680050149
513,evensk,61.95,159.2333,9.0,89,100,2.95,RU,1680050150
514,charters towers,-20.1,146.2667,84.92,44,56,7.14,AU,1680050150
515,port moresby,-9.4431,147.1797,85.57,69,8,6.15,PG,1680050150
516,tautira,-17.7333,-149.15,81.81,76,100,7.92,PF,1680050150
517,lamar,33.6668,-95.5836,60.71,36,0,9.22,US,1680050031
518,deputatskiy,69.3,139.9,-8.23,88,17,5.61,RU,1680050151
519,mount gambier,-37.8333,140.7667,63.05,57,66,8.84,AU,1680049882
520,cam ranh,11.9214,109.1591,78.76,78,20,4.61,VN,1680050151
521,nagua,19.3832,-69.8474,73.76,84,0,8.12,DO,1680050151
522,otavi,-19.65,17.3333,64.44,80,23,1.81,NA,1680050152
523,seguela,7.9611,-6.6731,76.39,75,100,2.95,CI,1680050152
524,namatanai,-3.6667,152.4333,85.12,68,75,0.4,PG,1680050152
525,mandalgovi,45.7625,106.2708,40.66,28,0,5.35,MN,1680050152
526,rio grande,-32.035,-52.0986,69.91,82,6,12.44,BR,1680050080
527,wetaskiwin,52.9668,-113.3687,33.28,90,27,5.01,CA,1680050152
528,alihe,50.5667,123.7167,42.3,59,6,16.51,CN,1680050153
529,sobolevo,54.4299,31.8996,43.48,90,100,12.82,RU,1680050153
530,aitape,-3.1374,142.3475,85.06,66,100,1.79,PG,1680050153
531,san carlos del zulia,9.0,-71.9135,76.03,82,14,6.15,VE,1680050153
532,freeport,40.6576,-73.5832,50.36,68,0,5.75,US,1680050153
533,narbonne,43.0833,2.8333,47.98,60,100,2.08,FR,1680050154
534,tayoltita,24.0833,-105.9333,71.13,24,100,3.69,MX,1680050154
535,inuvik,68.3499,-133.7218,16.66,86,100,16.11,CA,1680050154
536,kulhudhuffushi,6.6221,73.07,81.07,74,45,3.89,MV,1680050154
537,lithakia,37.7167,20.8333,45.77,39,0,18.01,GR,1680050154
538,zheleznodorozhnyy,55.7503,38.0042,41.61,87,100,11.99,RU,1680050155
539,cahors,44.4167,1.3333,45.95,71,100,5.23,FR,1680050155
540,inirida,3.8653,-67.9239,73.09,94,100,3.58,CO,1680050155
541,hagere selam,6.4833,38.5167,48.94,95,54,3.27,ET,1680050155
542,saint george,37.1041,-113.5841,68.25,13,0,6.91,US,1680050155
543,remanso,-9.6179,-42.0831,75.56,43,100,4.59,BR,1680050156
544,charleston,32.7766,-79.9309,67.1,93,75,5.75,US,1680049551
545,sisimiut,66.9395,-53.6735,5.95,80,20,7.65,GL,1680050156
546,manokwari,-0.8667,134.0833,82.87,69,97,5.03,ID,1680050157
547,lisakovsk,52.5369,62.4936,36.37,88,100,11.3,KZ,1680050157
548,necocli,8.4234,-76.786,79.92,83,99,12.08,CO,1680050157
549,shakawe,-18.3667,21.85,63.9,95,67,3.8,BW,1680050157
550,kachkanar,58.7,59.4948,19.45,91,7,3.22,RU,1680050157
551,plum,40.5004,-79.7495,46.26,43,100,1.01,US,1680050157
552,muisne,0.6,-80.0333,82.08,69,93,5.48,EC,1680050158
553,fort collins,40.5853,-105.0844,42.04,48,0,11.5,US,1680050075
554,andenes,69.3143,16.1194,22.93,73,3,5.75,NO,1680050158
555,canutama,-6.5339,-64.3831,73.65,96,100,0.87,BR,1680050158
556,palu,-0.8917,119.8707,82.89,66,100,1.01,ID,1680050158
557,roald,62.5833,6.1333,34.75,79,0,2.3,NO,1680050158
558,tungor,53.3808,142.9564,34.59,93,100,9.19,RU,1680050159
559,hannibal,39.7084,-91.3585,49.15,53,0,4.61,US,1680050159
560,nadym,65.5333,72.5167,-5.96,99,20,10.47,RU,1680050159
561,porto walter,-8.2686,-72.7439,71.62,98,75,2.15,BR,1680050159
562,waipawa,-41.4122,175.5153,48.45,73,100,25.17,NZ,1680050159
563,watrous,51.6668,-105.4679,13.78,67,100,3.44,CA,1680050159
564,pevek,69.7008,170.3133,11.84,77,14,19.46,RU,1680050160
565,makakilo city,21.3469,-158.0858,81.19,74,75,11.5,US,1680050160
566,jamame,0.0722,42.7506,79.92,74,48,8.95,SO,1680050160
567,mount isa,-20.7333,139.5,91.17,43,75,12.66,AU,1680050160
